{"data":{"allStation":{"totalCount":183,"edges":[{"node":{"id":"2a349ab4-2e86-56bd-b79e-6dd03931e4a4","number":1,"name":"10th & Cambie","lat":49.262487,"lng":-123.114397,"bikes":33,"free":19,"total":52,"operative":true,"style":"","valid":true}},{"node":{"id":"36e2a4c3-495f-56f8-b3fb-b902dbc1df9d","number":2,"name":"Burrard Station","lat":49.285871,"lng":-123.12105,"bikes":19,"free":9,"total":28,"operative":true,"style":"","valid":true}},{"node":{"id":"d31d9ff7-3339-5ae5-bd88-8c2d7cca79e7","number":4,"name":"Yaletown-Roundhouse Station","lat":49.274566,"lng":-123.121817,"bikes":6,"free":10,"total":16,"operative":true,"style":"","valid":true}},{"node":{"id":"37f4f8de-8abd-5888-bb6c-8651be717be4","number":5,"name":"Dunsmuir & Beatty","lat":49.279764,"lng":-123.110154,"bikes":12,"free":14,"total":26,"operative":true,"style":"","valid":true}},{"node":{"id":"9d1f9355-b3a6-5800-916e-3ffbcb0d7316","number":6,"name":"Olympic Village Station","lat":49.26667530440518,"lng":-123.11563476920128,"bikes":9,"free":16,"total":26,"operative":true,"style":"","valid":true}},{"node":{"id":"d36c332f-b914-54d4-81dd-46569924d31e","number":7,"name":"12th & Yukon","lat":49.260599,"lng":-123.113504,"bikes":8,"free":8,"total":16,"operative":true,"style":"","valid":true}},{"node":{"id":"0f050bc3-3006-5541-b3c3-649b1d439c72","number":8,"name":"8th & Ash","lat":49.264215,"lng":-123.117772,"bikes":12,"free":4,"total":16,"operative":true,"style":"","valid":true}},{"node":{"id":"526586d5-bdd4-5ecc-b45e-73d3473e5b3d","number":9,"name":"Spyglass & Seawall","lat":49.270877,"lng":-123.115103,"bikes":2,"free":10,"total":12,"operative":true,"style":"","valid":true}},{"node":{"id":"e77cea9a-cea2-5e00-9168-70d4b5efddf0","number":10,"name":"Stamp's Landing","lat":49.268613,"lng":-123.118186,"bikes":9,"free":5,"total":14,"operative":true,"style":"","valid":true}},{"node":{"id":"3af693ab-73e5-53ba-b343-e4efbadf91d5","number":11,"name":"Ontario & Seawall","lat":49.271721,"lng":-123.104207,"bikes":11,"free":9,"total":20,"operative":true,"style":"","valid":true}},{"node":{"id":"0f721582-cbd6-5dd9-9f7e-5229ffcdc6ce","number":12,"name":"Dunsmuir & Richards","lat":49.282214,"lng":-123.114101,"bikes":8,"free":16,"total":24,"operative":true,"style":"","valid":true}},{"node":{"id":"cb55052b-e486-5504-969a-43a06dcb6a51","number":14,"name":"Canada Place","lat":49.287214,"lng":-123.11287,"bikes":4,"free":18,"total":22,"operative":true,"style":"","valid":true}},{"node":{"id":"ebbc3e0a-b3bd-5431-bfe3-fe53509c8966","number":15,"name":"Granville & Georgia","lat":49.282409,"lng":-123.118541,"bikes":1,"free":19,"total":20,"operative":true,"style":"","valid":true}},{"node":{"id":"1f6465cc-07dc-5318-abcb-573501f12eb2","number":16,"name":"Pender & Burrard","lat":49.287097,"lng":-123.118551,"bikes":1,"free":25,"total":26,"operative":true,"style":"","valid":true}},{"node":{"id":"3e59bc51-c4af-5041-a666-26cad66f54bd","number":17,"name":"Marinaside & Davie","lat":49.273471,"lng":-123.118016,"bikes":8,"free":14,"total":22,"operative":true,"style":"","valid":true}},{"node":{"id":"7d3ccd4d-a758-5a17-88c5-0f7e89a28b86","number":19,"name":"Robson & Hornby","lat":49.282758,"lng":-123.122092,"bikes":17,"free":13,"total":30,"operative":true,"style":"","valid":true}},{"node":{"id":"bcc95d74-c812-53bc-be3b-93d3ce7d0717","number":21,"name":"Cordova & Granville","lat":0,"lng":0,"bikes":6,"free":16,"total":22,"operative":true,"style":"","valid":false}},{"node":{"id":"fe577c25-0474-5580-a713-5b0fe975e979","number":24,"name":"Hornby & Pender","lat":49.28602,"lng":-123.116624,"bikes":4,"free":18,"total":22,"operative":true,"style":"","valid":true}},{"node":{"id":"79285028-3872-5592-a752-83677937770e","number":25,"name":"Homer & Robson","lat":49.279739,"lng":-123.116251,"bikes":8,"free":12,"total":20,"operative":true,"style":"","valid":true}},{"node":{"id":"ee97fe6c-7909-51ff-bb7e-d0f8c2d69e9e","number":26,"name":"Beatty & Robson","lat":0,"lng":0,"bikes":9,"free":11,"total":20,"operative":true,"style":"","valid":false}},{"node":{"id":"f5faab2d-3ab9-5fa4-bd92-13eddab38f68","number":27,"name":"Beatty & Nelson","lat":49.275679,"lng":-123.116963,"bikes":8,"free":6,"total":14,"operative":true,"style":"","valid":true}},{"node":{"id":"235982e2-8f56-5ce7-b9f4-3fc371fd7ac7","number":28,"name":"Davie & Beach","lat":49.287528,"lng":-123.142139,"bikes":10,"free":20,"total":30,"operative":true,"style":"","valid":true}},{"node":{"id":"d641b617-1fc8-5e58-824d-1c5e1fc5479e","number":30,"name":"Abbott & Cordova","lat":49.282759,"lng":-123.106955,"bikes":9,"free":5,"total":14,"operative":true,"style":"","valid":true}},{"node":{"id":"f0e001f9-1f3f-5e69-bf79-53be91c140af","number":31,"name":"Morton & Denman","lat":49.28803,"lng":-123.142135,"bikes":15,"free":11,"total":26,"operative":true,"style":"","valid":true}},{"node":{"id":"94d9f185-1d3f-5fdc-af57-bda2f53175a8","number":32,"name":"Comox & Denman","lat":49.288444,"lng":-123.139203,"bikes":10,"free":8,"total":18,"operative":true,"style":"","valid":true}},{"node":{"id":"2f3c6bdd-ab59-55cc-9629-f8376ea84e4e","number":33,"name":"Robson & Denman","lat":49.291285,"lng":-123.13526,"bikes":9,"free":15,"total":24,"operative":true,"style":"","valid":true}},{"node":{"id":"65b3f0e6-709a-5b47-b2bd-fe3f74e1fc3f","number":34,"name":"Cordova & Bute","lat":49.289124,"lng":-123.12196,"bikes":7,"free":7,"total":14,"operative":true,"style":"","valid":true}},{"node":{"id":"cde78ac2-8d09-5863-8928-63c4559e3b01","number":35,"name":"Coal Harbour Community Centre","lat":49.290419,"lng":-123.12581,"bikes":21,"free":7,"total":28,"operative":true,"style":"","valid":true}},{"node":{"id":"5970e101-46c0-53c4-8d47-1c4f358d538c","number":36,"name":"Bute & Robson","lat":49.285836,"lng":-123.127265,"bikes":13,"free":13,"total":26,"operative":true,"style":"","valid":true}},{"node":{"id":"9ab388a2-ea99-5b84-96d7-5290b213b619","number":37,"name":"Hornby & Nelson","lat":49.28062,"lng":-123.12482,"bikes":4,"free":14,"total":18,"operative":true,"style":"","valid":true}},{"node":{"id":"e3b35043-f8d2-5843-b87c-f54a0f5dc381","number":39,"name":"Helmcken & Burrard","lat":49.279938,"lng":-123.127478,"bikes":0,"free":15,"total":15,"operative":true,"style":"","valid":true}},{"node":{"id":"968031d0-855d-55b0-9d88-4edb0bdd3707","number":41,"name":"Cardero & Robson","lat":49.289581,"lng":-123.132184,"bikes":9,"free":5,"total":14,"operative":true,"style":"","valid":true}},{"node":{"id":"64eea26b-c863-5056-85c8-3420abd09d43","number":44,"name":"Pacific & Richards","lat":49.273663,"lng":-123.127075,"bikes":10,"free":4,"total":14,"operative":true,"style":"","valid":true}},{"node":{"id":"82c66a2a-ea81-5ccd-aea2-33702281cb1b","number":47,"name":"Chilco & Beach","lat":49.28972,"lng":-123.144028,"bikes":10,"free":4,"total":14,"operative":true,"style":"","valid":true}},{"node":{"id":"f21be349-3cda-51b1-8417-a8b3dda733cc","number":48,"name":"Comox & Broughton","lat":49.285253,"lng":-123.134356,"bikes":6,"free":6,"total":12,"operative":true,"style":"","valid":true}},{"node":{"id":"c7062cdf-1e1a-5177-b8bc-9ad9a7a19384","number":50,"name":"Bute & Comox","lat":49.283343,"lng":-123.131099,"bikes":13,"free":9,"total":22,"operative":true,"style":"","valid":true}},{"node":{"id":"ded5fcf6-406e-5ad3-b3e5-df1ef3842f2d","number":52,"name":"Cambie & Water","lat":49.284605,"lng":-123.108662,"bikes":21,"free":11,"total":32,"operative":true,"style":"","valid":true}},{"node":{"id":"41592fad-9a72-5143-8f47-5a18ccfbc911","number":53,"name":"Keefer & Abbott","lat":49.279821,"lng":-123.10802,"bikes":18,"free":10,"total":28,"operative":true,"style":"","valid":true}},{"node":{"id":"46533a1f-0447-5625-8307-4c5c06bcd504","number":54,"name":"Expo & Carrall","lat":49.278004,"lng":-123.105664,"bikes":3,"free":12,"total":16,"operative":true,"style":"","valid":true}},{"node":{"id":"2c936487-63a2-5e6d-a3e7-0e65efd6597f","number":55,"name":"Keefer & Columbia","lat":49.279342,"lng":-123.101822,"bikes":6,"free":8,"total":14,"operative":true,"style":"","valid":true}},{"node":{"id":"8d6413c9-0bcb-5217-9029-e079bfc3de95","number":57,"name":"Marinaside & Cooperage","lat":49.273833,"lng":-123.114373,"bikes":18,"free":8,"total":26,"operative":true,"style":"","valid":true}},{"node":{"id":"ce5c3456-5ef8-56c0-848d-13e9ef142a4a","number":58,"name":"Homer & Smithe","lat":49.278283,"lng":-123.118612,"bikes":3,"free":15,"total":18,"operative":true,"style":"","valid":true}},{"node":{"id":"efed858f-66b3-52b1-90df-959868f6357a","number":60,"name":"Bidwell & Burnaby","lat":49.28526,"lng":-123.141809,"bikes":11,"free":15,"total":26,"operative":true,"style":"","valid":true}},{"node":{"id":"0ab0625f-5a44-5a2d-9903-03e8559398bb","number":63,"name":"Robson & Granville","lat":49.281506,"lng":-123.120101,"bikes":8,"free":24,"total":32,"operative":true,"style":"","valid":true}},{"node":{"id":"fa21bf97-5fa0-5613-8898-168a3760af01","number":64,"name":"Expo & Smithe","lat":49.276115,"lng":-123.114496,"bikes":6,"free":8,"total":14,"operative":true,"style":"","valid":true}},{"node":{"id":"d2a8b0f7-a9c5-5d15-9ec7-46d00c341cf8","number":65,"name":"Cypress & Cornwall","lat":49.272827,"lng":-123.147744,"bikes":13,"free":9,"total":22,"operative":true,"style":"","valid":true}},{"node":{"id":"ba53aca5-8875-58af-a7da-ed103fba70ef","number":66,"name":"Anderson & 2nd","lat":49.269361,"lng":-123.13782,"bikes":7,"free":21,"total":28,"operative":true,"style":"","valid":true}},{"node":{"id":"f863c75f-2693-56fd-8017-67eb9b4d2c2c","number":68,"name":"Cypress & Broadway","lat":49.263507,"lng":-123.148097,"bikes":8,"free":6,"total":14,"operative":true,"style":"","valid":true}},{"node":{"id":"1ab529b3-f0ab-5672-ab32-1ecff0128639","number":69,"name":"7th & Granville","lat":49.2653,"lng":-123.13811,"bikes":6,"free":8,"total":14,"operative":true,"style":"","valid":true}},{"node":{"id":"991b2612-a9ec-50a4-953f-a58ec65e408f","number":70,"name":"10th & Granville","lat":49.262598,"lng":-123.138921,"bikes":11,"free":3,"total":14,"operative":true,"style":"","valid":true}},{"node":{"id":"62212904-7704-5ac7-83c5-8f98ee2a6a52","number":71,"name":"14th & Granville","lat":49.25894,"lng":-123.139272,"bikes":5,"free":9,"total":14,"operative":true,"style":"","valid":true}},{"node":{"id":"d0946277-c5c7-5d77-bbc6-235211470002","number":72,"name":"14th & Cambie","lat":49.258763,"lng":-123.115392,"bikes":4,"free":10,"total":14,"operative":true,"style":"","valid":true}},{"node":{"id":"82d8f7ee-3925-5ed5-9301-ed14392e1cee","number":73,"name":"Ontario & 5th","lat":49.266724,"lng":-123.104824,"bikes":15,"free":3,"total":18,"operative":true,"style":"","valid":true}},{"node":{"id":"7d938ac8-ed5a-5070-8f7c-2466c0c24e39","number":74,"name":"10th & Main","lat":0,"lng":0,"bikes":9,"free":9,"total":18,"operative":true,"style":"","valid":false}},{"node":{"id":"112913cf-4697-590b-9680-c046f50f42e8","number":76,"name":"Cypress & 4th","lat":0,"lng":0,"bikes":14,"free":4,"total":18,"operative":true,"style":"","valid":false}},{"node":{"id":"3f25fa06-0a76-50cd-9b48-446ddfc6540e","number":77,"name":"Vanier Park","lat":49.275717,"lng":-123.142564,"bikes":11,"free":17,"total":28,"operative":true,"style":"","valid":true}},{"node":{"id":"227d68c8-ffef-56bf-96b7-4f8fbb57be82","number":78,"name":"Nelson & Mainland","lat":49.276436,"lng":-123.11877,"bikes":11,"free":9,"total":20,"operative":true,"style":"","valid":true}},{"node":{"id":"74ed3543-37a6-5619-a0db-b259de1af117","number":79,"name":"Nelson & Richards","lat":49.277844,"lng":-123.120942,"bikes":8,"free":10,"total":18,"operative":true,"style":"","valid":true}},{"node":{"id":"46842ee1-48ef-5572-85e6-33098b6aa90d","number":80,"name":"Laurel & Broadway","lat":49.263088,"lng":-123.12415,"bikes":11,"free":3,"total":14,"operative":true,"style":"","valid":true}},{"node":{"id":"22b0cdbc-5a4e-5988-aedc-3fb2c021dcae","number":81,"name":"7th & Heather","lat":49.265089,"lng":-123.119425,"bikes":12,"free":6,"total":18,"operative":true,"style":"","valid":true}},{"node":{"id":"3d7d24d5-3eeb-5a25-b0ac-dff78ae4ed57","number":82,"name":"Richards & Davie","lat":49.276153,"lng":-123.123889,"bikes":8,"free":6,"total":14,"operative":true,"style":"","valid":true}},{"node":{"id":"6706bbf3-e48a-58ec-b882-28fa064f77ae","number":83,"name":"Aquatic Centre","lat":49.27821,"lng":-123.136972,"bikes":23,"free":12,"total":35,"operative":true,"style":"","valid":true}},{"node":{"id":"0132c095-da5a-5f63-bd46-1f39dda7850a","number":84,"name":"Sunset Beach West","lat":49.281405,"lng":-123.139901,"bikes":9,"free":7,"total":16,"operative":true,"style":"","valid":true}},{"node":{"id":"1c815122-9290-5f96-a7e7-700a17a335e4","number":87,"name":"Broughton & Burnaby","lat":49.28329,"lng":-123.137034,"bikes":9,"free":7,"total":16,"operative":true,"style":"","valid":true}},{"node":{"id":"25675d32-9c8d-5489-9a23-419428d08f2e","number":88,"name":"Harwood & Bute","lat":49.28026,"lng":-123.135244,"bikes":11,"free":9,"total":20,"operative":true,"style":"","valid":true}},{"node":{"id":"8c1d5675-4578-5baf-ad5c-65ba4f026941","number":89,"name":"Burrard & Drake","lat":49.27808,"lng":-123.130557,"bikes":12,"free":12,"total":24,"operative":true,"style":"","valid":true}},{"node":{"id":"23a9fe9c-ad84-5986-a1e2-873ae8df1bcb","number":92,"name":"Chilco & Barclay","lat":49.291909,"lng":-123.140713,"bikes":6,"free":12,"total":18,"operative":true,"style":"","valid":true}},{"node":{"id":"7044bf5a-6d20-5c99-a8fc-d56d5677ed58","number":93,"name":"Chilco & Robson","lat":49.293257,"lng":-123.138563,"bikes":8,"free":10,"total":18,"operative":true,"style":"","valid":true}},{"node":{"id":"9d85ffcb-39d9-5e90-8a6c-f27486a39169","number":96,"name":"Nicola & Robson","lat":49.288011,"lng":-123.132006,"bikes":4,"free":13,"total":18,"operative":true,"style":"","valid":true}},{"node":{"id":"c442cfa2-fe53-58c8-9704-3a9b89a3cd49","number":98,"name":"Carrall & Hastings","lat":49.28117,"lng":-123.104419,"bikes":9,"free":9,"total":18,"operative":true,"style":"","valid":true}},{"node":{"id":"32c993db-f9af-531a-9a60-1f2d261899ff","number":99,"name":"Vancouver Art Gallery - North Plaza","lat":49.283227,"lng":-123.120523,"bikes":22,"free":6,"total":28,"operative":true,"style":"","valid":true}},{"node":{"id":"b4573744-c0ad-5f3a-81fc-b630d242220b","number":101,"name":"Stanley Park - Vancouver Aquarium","lat":49.299292,"lng":-123.130281,"bikes":5,"free":11,"total":16,"operative":true,"style":"","valid":true}},{"node":{"id":"7af38ac2-cd34-592b-9128-d1895e6ce7cf","number":102,"name":"Stanley Park - Second Beach North","lat":49.29534,"lng":-123.150433,"bikes":10,"free":6,"total":16,"operative":true,"style":"","valid":true}},{"node":{"id":"b39b97fb-9205-5949-adbd-468dcb36c83a","number":104,"name":"Stanley Park - Second Beach South","lat":49.294318,"lng":-123.148808,"bikes":10,"free":8,"total":18,"operative":true,"style":"","valid":true}},{"node":{"id":"cb9f4b6f-a033-5700-89d8-f28ca00afb94","number":105,"name":"Stanley Park - Totem Poles","lat":49.298657,"lng":-123.121176,"bikes":6,"free":14,"total":20,"operative":true,"style":"","valid":true}},{"node":{"id":"25c257cc-0b93-5ef5-8f9c-b9780ddce7dc","number":106,"name":"Heather & 14th","lat":49.259183,"lng":-123.120126,"bikes":7,"free":9,"total":16,"operative":true,"style":"","valid":true}},{"node":{"id":"7e34a93a-9056-56ae-b586-eacef9ced40c","number":107,"name":"8th & Ontario","lat":49.263837,"lng":-123.105173,"bikes":2,"free":12,"total":14,"operative":true,"style":"","valid":true}},{"node":{"id":"d0ed7804-26e4-59bd-b6b5-4edc5d3431bb","number":108,"name":"1st & Chestnut","lat":49.270721,"lng":-123.146175,"bikes":9,"free":7,"total":16,"operative":true,"style":"","valid":true}},{"node":{"id":"eb15f453-e789-5182-82d2-5ee5fea22b44","number":109,"name":"7th & Arbutus","lat":49.265605,"lng":-123.152566,"bikes":4,"free":12,"total":16,"operative":true,"style":"","valid":true}},{"node":{"id":"65ec1e9a-e457-5505-a91a-87149fd1828d","number":110,"name":"5th & Arbutus","lat":49.267222,"lng":-123.153157,"bikes":6,"free":10,"total":16,"operative":true,"style":"","valid":true}},{"node":{"id":"27cedbc5-fee4-5aab-b0c5-9f3d4c2a52e9","number":112,"name":"10th & Oak","lat":49.262255,"lng":-123.126217,"bikes":6,"free":24,"total":30,"operative":true,"style":"","valid":true}},{"node":{"id":"5aa2e9dd-0fdc-528b-8360-52e1335905bf","number":113,"name":"Arbutus & 16th","lat":49.257654,"lng":-123.153212,"bikes":10,"free":30,"total":40,"operative":true,"style":"","valid":true}},{"node":{"id":"03d920f1-d106-524b-9d74-adeeb3abb462","number":114,"name":"Cypress & 14th","lat":49.25919,"lng":-123.148268,"bikes":4,"free":8,"total":12,"operative":true,"style":"","valid":true}},{"node":{"id":"2bf497ec-586a-5156-be5d-883adfcfa486","number":115,"name":"Cypress & 16th","lat":49.25741,"lng":-123.148531,"bikes":7,"free":5,"total":12,"operative":true,"style":"","valid":true}},{"node":{"id":"3fad5db2-351d-563b-992a-203120a3350e","number":119,"name":"3rd & Quebec","lat":0,"lng":0,"bikes":13,"free":1,"total":14,"operative":true,"style":"","valid":false}},{"node":{"id":"f2102965-eccf-5311-be6f-539420cacc97","number":123,"name":"Georgia & Thurlow","lat":0,"lng":0,"bikes":2,"free":10,"total":12,"operative":true,"style":"","valid":false}},{"node":{"id":"d8a4ee0f-4137-5a40-9398-e9cb2f402d92","number":125,"name":"Hamilton & Robson","lat":49.279611,"lng":-123.115056,"bikes":9,"free":9,"total":18,"operative":true,"style":"","valid":true}},{"node":{"id":"49ae1eb2-ee00-5e24-9c79-750f56dc2f8a","number":126,"name":"Thurlow & Pendrell","lat":49.280881,"lng":-123.130672,"bikes":7,"free":9,"total":16,"operative":true,"style":"","valid":true}},{"node":{"id":"1f22a3c5-df61-5c7c-bd9f-e2dc747ed889","number":129,"name":"Richards & Robson","lat":49.280345,"lng":-123.117633,"bikes":12,"free":12,"total":24,"operative":true,"style":"","valid":true}},{"node":{"id":"63d24d47-09e5-5ec2-adbb-d221a15e3b1b","number":130,"name":"Heather & 16th","lat":49.256845,"lng":-123.120071,"bikes":5,"free":7,"total":12,"operative":true,"style":"","valid":true}},{"node":{"id":"5ab2c5f0-172c-579f-9ab2-08b21202695d","number":132,"name":"14th & Ontario","lat":49.25849,"lng":-123.104799,"bikes":8,"free":8,"total":16,"operative":true,"style":"","valid":true}},{"node":{"id":"703379ac-d965-5749-b058-08f9f133f257","number":133,"name":"Ontario & 16th","lat":49.256825,"lng":-123.105234,"bikes":3,"free":11,"total":14,"operative":true,"style":"","valid":true}},{"node":{"id":"59d4fe01-0e25-54ec-ad0a-deb53f11c264","number":134,"name":"14th & Main","lat":49.258425,"lng":-123.100792,"bikes":11,"free":3,"total":14,"operative":true,"style":"","valid":true}},{"node":{"id":"3768c3b7-47bb-5658-9d27-f6be08d71e29","number":136,"name":"David Lam Park - West","lat":49.270905,"lng":-123.126006,"bikes":13,"free":5,"total":18,"operative":true,"style":"","valid":true}},{"node":{"id":"47447b19-9cf9-5a9a-9a55-dff5d3a16f57","number":137,"name":"Beach & Seymour","lat":49.273568,"lng":-123.129935,"bikes":16,"free":2,"total":18,"operative":true,"style":"","valid":true}},{"node":{"id":"4fe07fdb-8f91-5363-8019-79dee480db0b","number":138,"name":"Richards & Helmcken","lat":0,"lng":0,"bikes":11,"free":7,"total":18,"operative":true,"style":"","valid":false}},{"node":{"id":"1c489946-eded-5571-968e-bb5ed973173d","number":139,"name":"Burrard & 4th","lat":0,"lng":0,"bikes":12,"free":4,"total":16,"operative":true,"style":"","valid":false}},{"node":{"id":"073826bb-7e95-5e5f-80af-f2a13c46c0df","number":140,"name":"Burrard & 7th","lat":0,"lng":0,"bikes":7,"free":9,"total":16,"operative":true,"style":"","valid":false}},{"node":{"id":"529dd333-081c-57e1-98f8-8eecabdc571c","number":143,"name":"South False Creek Seawall","lat":0,"lng":0,"bikes":5,"free":9,"total":14,"operative":true,"style":"","valid":false}},{"node":{"id":"a24b7055-6c28-561d-9482-87295786a6b5","number":147,"name":"Chestnut & McNicoll","lat":49.275938,"lng":-123.145939,"bikes":7,"free":9,"total":16,"operative":true,"style":"","valid":true}},{"node":{"id":"deab1b5e-4769-5773-8011-4f1d49e6e652","number":148,"name":"Creekside Park North","lat":49.2756,"lng":-123.102661,"bikes":10,"free":8,"total":18,"operative":true,"style":"","valid":true}},{"node":{"id":"27d0a4ae-e0d2-5e31-87d7-6772a90ddde2","number":150,"name":"Alexander & Main","lat":49.284157,"lng":-123.099917,"bikes":12,"free":8,"total":20,"operative":true,"style":"","valid":true}},{"node":{"id":"8195cc21-1893-5634-a853-6efc09576f36","number":152,"name":"Arbutus Greenway & 14th","lat":49.258924,"lng":-123.152591,"bikes":8,"free":12,"total":20,"operative":true,"style":"","valid":true}},{"node":{"id":"bc739d1c-3717-5ba1-afb7-d08dcbffd97b","number":153,"name":"Arbutus Greenway & Fir","lat":0,"lng":0,"bikes":10,"free":6,"total":16,"operative":true,"style":"","valid":false}},{"node":{"id":"04ddc4ce-1a76-5e7c-838f-0915e98c8f9c","number":154,"name":"Kitsilano Beach Park","lat":49.273355,"lng":-123.154493,"bikes":18,"free":18,"total":36,"operative":true,"style":"","valid":true}},{"node":{"id":"b6c66415-aa55-5890-8867-ebf98b098545","number":155,"name":"Arbutus & McNicoll","lat":49.276144,"lng":-123.151272,"bikes":14,"free":16,"total":30,"operative":true,"style":"","valid":true}},{"node":{"id":"2738e6c0-3727-596d-a457-08760d35aa2b","number":159,"name":"Vine & 4th","lat":49.268339,"lng":-123.157443,"bikes":10,"free":8,"total":18,"operative":true,"style":"","valid":true}},{"node":{"id":"e70d2db4-b681-5ee2-8ad3-44f822262399","number":161,"name":"Alexander & Dunlevy","lat":49.284062,"lng":-123.095097,"bikes":8,"free":6,"total":14,"operative":true,"style":"","valid":true}},{"node":{"id":"0b1272a9-25b1-5995-900d-0a99770d3bc8","number":165,"name":"Columbia & 4th","lat":49.26712,"lng":-123.10937,"bikes":14,"free":4,"total":18,"operative":true,"style":"","valid":true}},{"node":{"id":"e0638a1c-2e96-5e97-8815-4376b077e522","number":166,"name":"Alder & 11th","lat":49.261742,"lng":-123.13148,"bikes":6,"free":8,"total":14,"operative":true,"style":"","valid":true}},{"node":{"id":"650a16f6-f894-58a1-91d7-f34b9a21b449","number":167,"name":"Cordova & Columbia","lat":49.282266,"lng":-123.102165,"bikes":7,"free":7,"total":14,"operative":true,"style":"","valid":true}},{"node":{"id":"55b14cf4-5ef8-5c9d-869f-3589965e7289","number":171,"name":"5th & Yukon","lat":49.26667,"lng":-123.112414,"bikes":11,"free":3,"total":14,"operative":true,"style":"","valid":true}},{"node":{"id":"9c17fa07-11a7-516e-9ae0-5a94056fb7b6","number":172,"name":"10th & Columbia","lat":49.262206,"lng":-123.109091,"bikes":9,"free":5,"total":14,"operative":true,"style":"","valid":true}},{"node":{"id":"885934a4-28c2-5633-9092-dbcc43121c86","number":173,"name":"1st & Columbia","lat":0,"lng":0,"bikes":8,"free":8,"total":16,"operative":true,"style":"","valid":false}},{"node":{"id":"8c6b1d25-313e-5a7d-93e0-3e18b19fd471","number":174,"name":"1st & Ontario","lat":49.270227,"lng":-123.104786,"bikes":18,"free":14,"total":32,"operative":true,"style":"","valid":true}},{"node":{"id":"639f0a28-6c77-5c2d-9285-b9f6599a61c5","number":176,"name":"10th & Ontario","lat":49.262062,"lng":-123.104656,"bikes":8,"free":12,"total":20,"operative":true,"style":"","valid":true}},{"node":{"id":"6a81513e-e34c-578f-9894-05c766abe25d","number":187,"name":"Bute & Davie","lat":49.282224,"lng":-123.132778,"bikes":19,"free":1,"total":20,"operative":true,"style":"","valid":true}},{"node":{"id":"53b007a0-fdeb-54e3-b71b-192f20649be1","number":190,"name":"Melville & Bute","lat":49.287782,"lng":-123.12395,"bikes":7,"free":7,"total":14,"operative":true,"style":"","valid":true}},{"node":{"id":"bd4e8790-2eee-513f-b6b0-d93ca00cdfa9","number":193,"name":"Science World","lat":49.273691,"lng":-123.102232,"bikes":6,"free":10,"total":16,"operative":true,"style":"","valid":true}},{"node":{"id":"c197e7bf-8921-5e2f-8109-da0364809d58","number":196,"name":"Drake & Hornby","lat":49.277213,"lng":-123.129625,"bikes":12,"free":10,"total":22,"operative":true,"style":"","valid":true}},{"node":{"id":"9cf432ae-be66-5072-ba49-3d0de03fba83","number":197,"name":"1st & Main","lat":49.27001,"lng":-123.100123,"bikes":8,"free":12,"total":20,"operative":true,"style":"","valid":true}},{"node":{"id":"d35d0132-6544-5c2c-afc7-08d095c730b5","number":198,"name":"6th & Main","lat":49.265551,"lng":-123.100323,"bikes":3,"free":13,"total":16,"operative":true,"style":"","valid":true}},{"node":{"id":"d993f3c6-7238-5f62-9e73-36a795653e4c","number":199,"name":"Georgia & Main","lat":49.278529,"lng":-123.100017,"bikes":11,"free":9,"total":20,"operative":true,"style":"","valid":true}},{"node":{"id":"486fdc35-1144-5dcd-bd48-15774662db46","number":201,"name":"Shaw Tower","lat":49.288682,"lng":-123.11818,"bikes":14,"free":6,"total":20,"operative":true,"style":"","valid":true}},{"node":{"id":"769e2f37-b1e1-5216-9484-9c3591fb981a","number":202,"name":"14th & Oak","lat":49.258761,"lng":-123.127071,"bikes":6,"free":8,"total":14,"operative":true,"style":"","valid":true}},{"node":{"id":"7fb1541f-b448-5ff2-bb40-39fb1bb02de8","number":203,"name":"Pine & 14th","lat":49.258864,"lng":-123.14353,"bikes":7,"free":5,"total":12,"operative":true,"style":"","valid":true}},{"node":{"id":"25a09e11-a102-5fc9-adb0-493e2385581a","number":204,"name":"York & Yew","lat":49.271741,"lng":-123.155421,"bikes":11,"free":9,"total":20,"operative":true,"style":"","valid":true}},{"node":{"id":"871b7f61-70d2-514a-881e-e397f72c664a","number":205,"name":"Pine & 10th","lat":49.262822,"lng":-123.14338,"bikes":9,"free":11,"total":20,"operative":true,"style":"","valid":true}},{"node":{"id":"532de34d-e518-5797-a1c1-b38d2082711d","number":206,"name":"8th & Scotia","lat":49.263635,"lng":-123.099236,"bikes":5,"free":7,"total":12,"operative":true,"style":"","valid":true}},{"node":{"id":"5baec27c-eb59-5009-a6bb-f2107aefdcfe","number":207,"name":"Alberni & Jervis","lat":49.28763,"lng":-123.127245,"bikes":7,"free":7,"total":14,"operative":true,"style":"","valid":true}},{"node":{"id":"4c2ec07e-a23a-5191-a933-199eea1fb8ef","number":208,"name":"Arbutus Greenway & Broadway","lat":49.263649,"lng":-123.152421,"bikes":12,"free":8,"total":20,"operative":true,"style":"","valid":true}},{"node":{"id":"7c2b8aa1-4e9e-5123-ad81-dfb6885bc114","number":209,"name":"Stanley Park - Information Booth","lat":49.297933,"lng":-123.130758,"bikes":10,"free":10,"total":20,"operative":true,"style":"","valid":true}},{"node":{"id":"e2763691-568a-521c-bee2-88a3baab1d5b","number":211,"name":"14th & Alder","lat":0,"lng":0,"bikes":8,"free":6,"total":14,"operative":true,"style":"","valid":false}},{"node":{"id":"42a5a4c3-7ec8-52ea-862f-00eb1bdd10a2","number":213,"name":"Pender & Gore","lat":0,"lng":0,"bikes":6,"free":8,"total":14,"operative":true,"style":"","valid":false}},{"node":{"id":"7d6223a8-9f51-532d-88c4-dbd018a28f36","number":218,"name":"Carrall & Seawall","lat":49.276294,"lng":-123.106534,"bikes":8,"free":9,"total":18,"operative":true,"style":"","valid":true}},{"node":{"id":"2d641c3a-9cd9-5a02-8175-22792d170a16","number":221,"name":"Glen & Union","lat":49.277469,"lng":-123.081315,"bikes":4,"free":10,"total":14,"operative":true,"style":"","valid":true}},{"node":{"id":"f3256e4f-b9fe-5667-bcb5-f7c6eee4bc53","number":222,"name":"Adanac & McLean","lat":49.277665,"lng":-123.073653,"bikes":8,"free":8,"total":16,"operative":true,"style":"","valid":true}},{"node":{"id":"f9eea9e4-e94f-5e5e-9553-1f3560e59a2a","number":223,"name":"Commercial & Adanac","lat":49.277436,"lng":-123.070427,"bikes":9,"free":7,"total":16,"operative":true,"style":"","valid":true}},{"node":{"id":"f2302b24-9b75-5091-95ef-308344c887cf","number":224,"name":"Pender & Commercial","lat":49.280332,"lng":-123.070068,"bikes":7,"free":9,"total":16,"operative":true,"style":"","valid":true}},{"node":{"id":"bd1c9e2e-da82-5395-802d-4e2f03d5ebfe","number":225,"name":"McLean & Pender","lat":49.280205,"lng":-123.074174,"bikes":8,"free":8,"total":16,"operative":true,"style":"","valid":true}},{"node":{"id":"94161c5d-7c0f-5207-ad31-9a218399e8d5","number":227,"name":"Campbell & Hastings","lat":0,"lng":0,"bikes":12,"free":2,"total":14,"operative":true,"style":"","valid":false}},{"node":{"id":"15c0b1fc-976b-58a9-b093-d900a2f0371e","number":229,"name":"Keefer & Princess","lat":49.279369,"lng":-123.091241,"bikes":5,"free":9,"total":14,"operative":true,"style":"","valid":true}},{"node":{"id":"8fa03ec0-7eeb-56ad-b98c-037c3d6e8041","number":230,"name":"Alexander & Railway","lat":49.283992,"lng":-123.091206,"bikes":11,"free":9,"total":20,"operative":true,"style":"","valid":true}},{"node":{"id":"579903dc-516a-530c-83c0-837f0ad6e551","number":231,"name":"Napier & Commercial","lat":49.274881,"lng":-123.069323,"bikes":7,"free":7,"total":14,"operative":true,"style":"","valid":true}},{"node":{"id":"b72a9698-c9df-5e57-afb9-48a29a716fad","number":232,"name":"Britannia Parking Lot","lat":49.275882,"lng":-123.071865,"bikes":1,"free":13,"total":14,"operative":true,"style":"","valid":true}},{"node":{"id":"3bf077ea-d9c1-5761-b7f6-0f447f05ac41","number":233,"name":"Thornton & National","lat":49.273777,"lng":-123.092723,"bikes":4,"free":9,"total":14,"operative":true,"style":"","valid":true}},{"node":{"id":"992f3c16-aa77-5dec-a9e5-c8152f2bff27","number":234,"name":"Station & National","lat":49.274249,"lng":-123.098481,"bikes":6,"free":8,"total":14,"operative":true,"style":"","valid":true}},{"node":{"id":"13c4a128-9181-58aa-8ab9-e4e1a7391e37","number":235,"name":"Charles & Commercial","lat":49.273103,"lng":-123.069892,"bikes":3,"free":19,"total":22,"operative":true,"style":"","valid":true}},{"node":{"id":"bf5cc640-c7c8-546a-9d89-9d4796264e36","number":236,"name":"Keith & 6th","lat":49.265005,"lng":-123.079481,"bikes":18,"free":10,"total":28,"operative":true,"style":"","valid":true}},{"node":{"id":"29d65a7b-7b66-5da4-bb9e-ec65abf95813","number":237,"name":"Glen & 6th","lat":49.265024,"lng":-123.08127,"bikes":8,"free":12,"total":20,"operative":true,"style":"","valid":true}},{"node":{"id":"a5d13ba0-9c30-5e60-a0a6-de60f83ab8e9","number":238,"name":"Thornton & 1st","lat":0,"lng":0,"bikes":14,"free":12,"total":26,"operative":true,"style":"","valid":false}},{"node":{"id":"99edf1c9-0f32-54dd-9e2a-a2bf1567fc0a","number":239,"name":"Grant & Commercial","lat":49.271377,"lng":-123.069416,"bikes":1,"free":13,"total":14,"operative":true,"style":"","valid":true}},{"node":{"id":"b7d35f02-b7cd-5fa7-80d3-42e2fceef2a3","number":240,"name":"2nd & Commercial","lat":49.268616,"lng":-123.069908,"bikes":7,"free":15,"total":22,"operative":true,"style":"","valid":true}},{"node":{"id":"0885d655-fd41-5975-8948-4d3cf257f303","number":241,"name":"4th & Commercial","lat":49.266969,"lng":-123.069936,"bikes":5,"free":9,"total":14,"operative":true,"style":"","valid":true}},{"node":{"id":"1675391c-e20a-581e-b5a6-39917821348f","number":242,"name":"8th & Commercial","lat":49.263242,"lng":-123.070521,"bikes":11,"free":27,"total":38,"operative":true,"style":"","valid":true}},{"node":{"id":"84a37aae-19c6-514f-9a86-aafc842bfe8d","number":244,"name":"10th & Commercial","lat":49.261403,"lng":-123.070102,"bikes":9,"free":17,"total":26,"operative":true,"style":"","valid":true}},{"node":{"id":"20ee1b4a-dfa2-5959-9b2e-904a322c9adc","number":245,"name":"Woodland & 10th","lat":49.261263,"lng":-123.073707,"bikes":6,"free":8,"total":14,"operative":true,"style":"","valid":true}},{"node":{"id":"910264f6-d5b9-5ac8-8419-d9ec94ad3a80","number":246,"name":"Glen & Broadway","lat":49.262242,"lng":-123.081459,"bikes":13,"free":5,"total":18,"operative":true,"style":"","valid":true}},{"node":{"id":"5f891d7c-2eb2-5277-8a06-5445b1d56a05","number":248,"name":"St George & Broadway","lat":49.262321,"lng":-123.09306,"bikes":5,"free":9,"total":14,"operative":true,"style":"","valid":true}},{"node":{"id":"a44e86b8-5c54-5400-9512-9c1179b81d36","number":249,"name":"7th & Woodland","lat":49.264251,"lng":-123.073853,"bikes":3,"free":9,"total":12,"operative":true,"style":"","valid":true}},{"node":{"id":"410305ce-f4a3-58f1-bd15-3acbbdc31e63","number":250,"name":"Woodland & 4th","lat":49.266751,"lng":-123.073501,"bikes":5,"free":9,"total":14,"operative":true,"style":"","valid":true}},{"node":{"id":"e0d71945-2d8c-57e5-a8a3-358c3d2b8ec2","number":252,"name":"Woodland & Graveley","lat":49.270684,"lng":-123.073562,"bikes":5,"free":7,"total":12,"operative":true,"style":"","valid":true}},{"node":{"id":"5bd08f7b-f0ac-5d2b-a8d1-81a03aff0524","number":253,"name":"Charles & Woodland","lat":49.2731,"lng":-123.0732,"bikes":7,"free":7,"total":14,"operative":true,"style":"","valid":true}},{"node":{"id":"4f65e571-5829-5275-8d7f-a13ffd4c5327","number":254,"name":"Grandview Bike Lane & Commercial","lat":49.264083,"lng":-123.070611,"bikes":11,"free":31,"total":42,"operative":true,"style":"","valid":true}},{"node":{"id":"164d9f91-7936-5b83-8ccb-5623ecdaff49","number":255,"name":"18th & Main","lat":49.254667,"lng":-123.101389,"bikes":5,"free":11,"total":16,"operative":true,"style":"","valid":true}},{"node":{"id":"760fc681-0e91-55ff-a5f8-c028add4ab5d","number":256,"name":"Prince Edward & 16th","lat":49.256694,"lng":-123.096579,"bikes":6,"free":8,"total":14,"operative":true,"style":"","valid":true}},{"node":{"id":"d8842225-13c3-5895-b5bb-251ea51fd7bc","number":257,"name":"Prince Edward & 14th","lat":49.258352,"lng":-123.096337,"bikes":6,"free":8,"total":14,"operative":true,"style":"","valid":true}},{"node":{"id":"193fca9c-ea1e-520d-928a-e71c1bcddfdf","number":258,"name":"13th & St George","lat":49.258817,"lng":-123.092797,"bikes":6,"free":10,"total":16,"operative":true,"style":"","valid":true}},{"node":{"id":"924b9f36-7476-5264-a231-121582d2d603","number":260,"name":"10th & Fraser","lat":49.26151,"lng":-123.089413,"bikes":6,"free":8,"total":14,"operative":true,"style":"","valid":true}},{"node":{"id":"e799549f-75da-5b13-a5c0-95aaf064a8ba","number":261,"name":"8th & Fraser","lat":49.263382,"lng":-123.088837,"bikes":5,"free":11,"total":16,"operative":true,"style":"","valid":true}},{"node":{"id":"45050f66-80f5-5c47-b618-5af3cf2cf0e3","number":262,"name":"8th & Prince Edward","lat":49.263518,"lng":-123.09568,"bikes":3,"free":15,"total":18,"operative":true,"style":"","valid":true}},{"node":{"id":"329798ea-fdc8-5f08-8d08-37d9bf0da819","number":265,"name":"St Catherines & 10th","lat":49.261353,"lng":-123.085333,"bikes":6,"free":6,"total":12,"operative":true,"style":"","valid":true}},{"node":{"id":"931c6d78-9bdd-558a-8afd-94cb8a43f85e","number":266,"name":"St Catherines & 7th","lat":0,"lng":0,"bikes":4,"free":16,"total":20,"operative":true,"style":"","valid":false}},{"node":{"id":"8939f830-b1f8-53a2-88e0-098be79faf49","number":272,"name":"Pender & Victoria","lat":49.280197,"lng":-123.065859,"bikes":2,"free":14,"total":16,"operative":true,"style":"","valid":true}},{"node":{"id":"12827c9c-59d3-5fe3-ad5f-240c00cd20f3","number":273,"name":"Victoria & 4th","lat":49.266725,"lng":-123.065925,"bikes":10,"free":6,"total":16,"operative":true,"style":"","valid":true}},{"node":{"id":"e4de6652-20da-5a17-9143-97b1c7cc67e7","number":274,"name":"Victoria & 10th","lat":49.261188,"lng":-123.066009,"bikes":2,"free":10,"total":12,"operative":true,"style":"","valid":true}},{"node":{"id":"9aa40137-de61-56b8-b1df-695a8d4ecc1b","number":278,"name":"15th & Victoria","lat":49.256857,"lng":-123.065646,"bikes":8,"free":10,"total":18,"operative":true,"style":"","valid":true}},{"node":{"id":"0c58d3ea-e849-5fbe-8cec-076ef4055d3c","number":280,"name":"Triumph & Victoria","lat":49.283986,"lng":-123.065264,"bikes":6,"free":10,"total":16,"operative":true,"style":"","valid":true}},{"node":{"id":"0cd20b3c-dad3-5540-98ca-5c9e4db14e88","number":283,"name":"15th & Knight","lat":0,"lng":0,"bikes":9,"free":5,"total":14,"operative":true,"style":"","valid":false}},{"node":{"id":"f01b5c14-7b5e-5784-b16d-68f140179157","number":285,"name":"Commercial & Pandora","lat":49.283236,"lng":-123.070443,"bikes":11,"free":5,"total":16,"operative":true,"style":"","valid":true}},{"node":{"id":"8cd858c7-9976-5dfe-ae72-c40b78de43e4","number":287,"name":"Carolina & Great Northern Way","lat":49.267266,"lng":-123.090786,"bikes":8,"free":8,"total":16,"operative":true,"style":"","valid":true}},{"node":{"id":"b124fbf4-4f7a-5ef0-a5cd-25ec8ac68fb2","number":297,"name":"6th & Prince Edward","lat":49.265242,"lng":-123.095577,"bikes":2,"free":14,"total":16,"operative":true,"style":"","valid":true}},{"node":{"id":"dd5ea9ee-38ad-522e-986b-d316e3e7b9c8","number":298,"name":"6th & Carolina","lat":49.265213,"lng":-123.090785,"bikes":9,"free":7,"total":16,"operative":true,"style":"","valid":true}}]}},"pageContext":{}}